Date,Time,,,,,,,Action,,time_usec,,lat,,lon,,alt_msl,,alt_rel,,roll,,pitch,,yaw,,,,img_idx,,,,,,,,
10-02-2016,15:07:16,FE,2D,5F,54,1,B4,mavlink_camera_feedback_t,time_usec,1.45511E+15,lat,474317996,lng,379570196,alt_msl,427.49,alt_rel,348.78,roll,1.23,pitch,0.11,yaw,109.32,foc_len,0,img_idx,1,target_system,0,cam_idx,0,flags,0,Len,53
10-02-2016,15:07:25,FE,2D,AD,54,1,B4,mavlink_camera_feedback_t,time_usec,1.45511E+15,lat,474315877,lng,379583163,alt_msl,426.04,alt_rel,347.33,roll,5.33,pitch,1.84,yaw,103.2,foc_len,0,img_idx,2,target_system,0,cam_idx,0,flags,0,Len,53
10-02-2016,15:07:34,FE,2D,1E,54,1,B4,mavlink_camera_feedback_t,time_usec,1.45511E+15,lat,474313066,lng,379595871,alt_msl,424.9,alt_rel,346.19,roll,0.88,pitch,2.38,yaw,106.89,foc_len,0,img_idx,3,target_system,0,cam_idx,0,flags,0,Len,53
10-02-2016,15:07:43,FE,2D,8E,54,1,B4,mavlink_camera_feedback_t,time_usec,1.45511E+15,lat,474310386,lng,379608719,alt_msl,425.65,alt_rel,346.94,roll,1.65,pitch,0.72,yaw,105.88,foc_len,0,img_idx,4,target_system,0,cam_idx,0,flags,0,Len,53
10-02-2016,15:07:51,FE,2D,EC,54,1,B4,mavlink_camera_feedback_t,time_usec,1.45511E+15,lat,474307609,lng,379621429,alt_msl,410.61,alt_rel,331.9,roll,-1.16,pitch,-11.31,yaw,112.97,foc_len,0,img_idx,5,target_system,0,cam_idx,0,flags,0,Len,53
10-02-2016,15:07:59,FE,2D,1B,54,1,B4,mavlink_camera_feedback_t,time_usec,1.45511E+15,lat,474304771,lng,379634223,alt_msl,385.06,alt_rel,306.35,roll,-0.8,pitch,-2.35,yaw,109.37,foc_len,0,img_idx,6,target_system,0,cam_idx,0,flags,0,Len,53
10-02-2016,15:08:08,FE,2D,88,54,1,B4,mavlink_camera_feedback_t,time_usec,1.45511E+15,lat,474302520,lng,379647121,alt_msl,371.96,alt_rel,293.25,roll,1.61,pitch,1.87,yaw,106.8,foc_len,0,img_idx,7,target_system,0,cam_idx,0,flags,0,Len,53
10-02-2016,15:08:17,FE,2D,8,54,1,B4,mavlink_camera_feedback_t,time_usec,1.45511E+15,lat,474299956,lng,379660067,alt_msl,375.68,alt_rel,296.97,roll,0.01,pitch,3.17,yaw,105.94,foc_len,0,img_idx,8,target_system,0,cam_idx,0,flags,0,Len,53
10-02-2016,15:08:26,FE,2D,79,54,1,B4,mavlink_camera_feedback_t,time_usec,1.45511E+15,lat,474297443,lng,379672917,alt_msl,378.77,alt_rel,300.06,roll,1.87,pitch,1.52,yaw,106.13,foc_len,0,img_idx,9,target_system,0,cam_idx,0,flags,0,Len,53
10-02-2016,15:08:34,FE,2D,DE,54,1,B4,mavlink_camera_feedback_t,time_usec,1.45511E+15,lat,474294678,lng,379685556,alt_msl,380.84,alt_rel,302.13,roll,-0.56,pitch,-1.03,yaw,107.5,foc_len,0,img_idx,10,target_system,0,cam_idx,0,flags,0,Len,53
10-02-2016,15:08:43,FE,2D,44,54,1,B4,mavlink_camera_feedback_t,time_usec,1.45511E+15,lat,474292212,lng,379698521,alt_msl,377.67,alt_rel,298.96,roll,0.37,pitch,0.44,yaw,106.87,foc_len,0,img_idx,11,target_system,0,cam_idx,0,flags,0,Len,53
10-02-2016,15:08:52,FE,2D,B6,54,1,B4,mavlink_camera_feedback_t,time_usec,1.45511E+15,lat,474289463,lng,379711589,alt_msl,377.73,alt_rel,299.02,roll,1.24,pitch,1.12,yaw,107.43,foc_len,0,img_idx,12,target_system,0,cam_idx,0,flags,0,Len,53
10-02-2016,15:09:00,FE,2D,22,54,1,B4,mavlink_camera_feedback_t,time_usec,1.45511E+15,lat,474286880,lng,379724518,alt_msl,378.88,alt_rel,300.17,roll,2.07,pitch,1.04,yaw,104.47,foc_len,0,img_idx,13,target_system,0,cam_idx,0,flags,0,Len,53
10-02-2016,15:09:09,FE,2D,81,54,1,B4,mavlink_camera_feedback_t,time_usec,1.45511E+15,lat,474284243,lng,379737366,alt_msl,379.68,alt_rel,300.97,roll,0.18,pitch,-0.26,yaw,107.07,foc_len,0,img_idx,14,target_system,0,cam_idx,0,flags,0,Len,53
10-02-2016,15:09:17,FE,2D,D7,54,1,B4,mavlink_camera_feedback_t,time_usec,1.45511E+15,lat,474281520,lng,379750371,alt_msl,380.79,alt_rel,302.08,roll,-1.13,pitch,-0.8,yaw,109.41,foc_len,0,img_idx,15,target_system,0,cam_idx,0,flags,0,Len,53
10-02-2016,15:09:25,FE,2D,20,54,1,B4,mavlink_camera_feedback_t,time_usec,1.45511E+15,lat,474279009,lng,379763403,alt_msl,379.56,alt_rel,300.85,roll,0.36,pitch,-1.48,yaw,108.82,foc_len,0,img_idx,16,target_system,0,cam_idx,0,flags,0,Len,53
10-02-2016,15:09:34,FE,2D,7E,54,1,B4,mavlink_camera_feedback_t,time_usec,1.45511E+15,lat,474276373,lng,379776700,alt_msl,378.42,alt_rel,299.71,roll,3.43,pitch,-0.55,yaw,107.67,foc_len,0,img_idx,17,target_system,0,cam_idx,0,flags,0,Len,53
10-02-2016,15:09:42,FE,2D,B8,54,1,B4,mavlink_camera_feedback_t,time_usec,1.45511E+15,lat,474273642,lng,379789760,alt_msl,379.29,alt_rel,300.58,roll,3.34,pitch,-0.47,yaw,105.72,foc_len,0,img_idx,18,target_system,0,cam_idx,0,flags,0,Len,53
10-02-2016,15:09:51,FE,2D,3,54,1,B4,mavlink_camera_feedback_t,time_usec,1.45511E+15,lat,474271010,lng,379802681,alt_msl,378.26,alt_rel,299.55,roll,2.54,pitch,0.84,yaw,102.26,foc_len,0,img_idx,19,target_system,0,cam_idx,0,flags,0,Len,53
10-02-2016,15:09:59,FE,2D,66,54,1,B4,mavlink_camera_feedback_t,time_usec,1.45511E+15,lat,474268367,lng,379815432,alt_msl,380.45,alt_rel,301.74,roll,1.67,pitch,-1.53,yaw,108.66,foc_len,0,img_idx,20,target_system,0,cam_idx,0,flags,0,Len,53
10-02-2016,15:10:08,FE,2D,D3,54,1,B4,mavlink_camera_feedback_t,time_usec,1.45511E+15,lat,474265918,lng,379828484,alt_msl,376.4,alt_rel,297.69,roll,3.12,pitch,3.08,yaw,105.42,foc_len,0,img_idx,21,target_system,0,cam_idx,0,flags,0,Len,53
10-02-2016,15:10:17,FE,2D,37,54,1,B4,mavlink_camera_feedback_t,time_usec,1.45511E+15,lat,474263177,lng,379841190,alt_msl,379.45,alt_rel,300.74,roll,1.92,pitch,0.63,yaw,103.61,foc_len,0,img_idx,22,target_system,0,cam_idx,0,flags,0,Len,53
10-02-2016,15:10:25,FE,2D,94,54,1,B4,mavlink_camera_feedback_t,time_usec,1.45511E+15,lat,474260656,lng,379853996,alt_msl,379.13,alt_rel,300.42,roll,4.31,pitch,2.32,yaw,104.3,foc_len,0,img_idx,23,target_system,0,cam_idx,0,flags,0,Len,53
10-02-2016,15:10:33,FE,2D,E3,54,1,B4,mavlink_camera_feedback_t,time_usec,1.45511E+15,lat,474257744,lng,379866790,alt_msl,379.67,alt_rel,300.96,roll,-0.34,pitch,-0.62,yaw,103.03,foc_len,0,img_idx,24,target_system,0,cam_idx,0,flags,0,Len,53
10-02-2016,15:10:42,FE,2D,40,54,1,B4,mavlink_camera_feedback_t,time_usec,1.45511E+15,lat,474255136,lng,379879764,alt_msl,375.76,alt_rel,297.05,roll,2.67,pitch,-0.93,yaw,102.58,foc_len,0,img_idx,25,target_system,0,cam_idx,0,flags,0,Len,53
10-02-2016,15:10:50,FE,2D,91,54,1,B4,mavlink_camera_feedback_t,time_usec,1.45511E+15,lat,474252745,lng,379892657,alt_msl,376.57,alt_rel,297.86,roll,1.34,pitch,-0.32,yaw,106.67,foc_len,0,img_idx,26,target_system,0,cam_idx,0,flags,0,Len,53
10-02-2016,15:10:58,FE,2D,DB,54,1,B4,mavlink_camera_feedback_t,time_usec,1.45511E+15,lat,474250084,lng,379905587,alt_msl,378.12,alt_rel,299.41,roll,3.18,pitch,2.95,yaw,104.74,foc_len,0,img_idx,27,target_system,0,cam_idx,0,flags,0,Len,53
10-02-2016,15:11:06,FE,2D,41,54,1,B4,mavlink_camera_feedback_t,time_usec,1.45511E+15,lat,474247496,lng,379918398,alt_msl,377.71,alt_rel,299,roll,-0.59,pitch,1.87,yaw,106.01,foc_len,0,img_idx,28,target_system,0,cam_idx,0,flags,0,Len,53
10-02-2016,15:11:15,FE,2D,A2,54,1,B4,mavlink_camera_feedback_t,time_usec,1.45511E+15,lat,474244797,lng,379931284,alt_msl,378.04,alt_rel,299.33,roll,2.47,pitch,3.69,yaw,103.77,foc_len,0,img_idx,29,target_system,0,cam_idx,0,flags,0,Len,53
10-02-2016,15:11:23,FE,2D,2,54,1,B4,mavlink_camera_feedback_t,time_usec,1.45511E+15,lat,474242228,lng,379944328,alt_msl,380.58,alt_rel,301.87,roll,2.03,pitch,0.16,yaw,105.94,foc_len,0,img_idx,30,target_system,0,cam_idx,0,flags,0,Len,53
10-02-2016,15:11:32,FE,2D,6D,54,1,B4,mavlink_camera_feedback_t,time_usec,1.45511E+15,lat,474239678,lng,379957281,alt_msl,378.36,alt_rel,299.65,roll,1.36,pitch,1.5,yaw,107.8,foc_len,0,img_idx,31,target_system,0,cam_idx,0,flags,0,Len,53
10-02-2016,15:11:40,FE,2D,C8,54,1,B4,mavlink_camera_feedback_t,time_usec,1.45511E+15,lat,474236946,lng,379970067,alt_msl,379.25,alt_rel,300.54,roll,2.07,pitch,0.79,yaw,105.48,foc_len,0,img_idx,32,target_system,0,cam_idx,0,flags,0,Len,53
10-02-2016,15:11:49,FE,2D,28,54,1,B4,mavlink_camera_feedback_t,time_usec,1.45511E+15,lat,474234359,lng,379982905,alt_msl,379.24,alt_rel,300.53,roll,1.48,pitch,1.16,yaw,104.38,foc_len,0,img_idx,33,target_system,0,cam_idx,0,flags,0,Len,53
10-02-2016,15:11:57,FE,2D,77,54,1,B4,mavlink_camera_feedback_t,time_usec,1.45511E+15,lat,474231826,lng,379995845,alt_msl,377.27,alt_rel,298.56,roll,0.3,pitch,0.58,yaw,108.72,foc_len,0,img_idx,34,target_system,0,cam_idx,0,flags,0,Len,53
10-02-2016,15:12:05,FE,2D,CE,54,1,B4,mavlink_camera_feedback_t,time_usec,1.45511E+15,lat,474229101,lng,380008832,alt_msl,379.07,alt_rel,300.36,roll,-0.97,pitch,-2.23,yaw,112.4,foc_len,0,img_idx,35,target_system,0,cam_idx,0,flags,0,Len,53
10-02-2016,15:12:13,FE,2D,10,54,1,B4,mavlink_camera_feedback_t,time_usec,1.45511E+15,lat,474226463,lng,380021568,alt_msl,380.44,alt_rel,301.73,roll,0.65,pitch,-0.02,yaw,107.65,foc_len,0,img_idx,36,target_system,0,cam_idx,0,flags,0,Len,53
10-02-2016,15:12:21,FE,2D,60,54,1,B4,mavlink_camera_feedback_t,time_usec,1.45511E+15,lat,474223893,lng,380034589,alt_msl,377.86,alt_rel,299.15,roll,-0.68,pitch,0.7,yaw,108.61,foc_len,0,img_idx,37,target_system,0,cam_idx,0,flags,0,Len,53
10-02-2016,15:12:29,FE,2D,AA,54,1,B4,mavlink_camera_feedback_t,time_usec,1.45511E+15,lat,474221231,lng,380047446,alt_msl,378.51,alt_rel,299.8,roll,0.67,pitch,-0.24,yaw,105.4,foc_len,0,img_idx,38,target_system,0,cam_idx,0,flags,0,Len,53
10-02-2016,15:12:37,FE,2D,F8,54,1,B4,mavlink_camera_feedback_t,time_usec,1.45511E+15,lat,474218634,lng,380060376,alt_msl,379.9,alt_rel,301.19,roll,-1.44,pitch,-2.55,yaw,109.28,foc_len,0,img_idx,39,target_system,0,cam_idx,0,flags,0,Len,53
10-02-2016,15:12:44,FE,2D,3A,54,1,B4,mavlink_camera_feedback_t,time_usec,1.45511E+15,lat,474216076,lng,380073380,alt_msl,379.41,alt_rel,300.7,roll,2.07,pitch,-1.28,yaw,105.72,foc_len,0,img_idx,40,target_system,0,cam_idx,0,flags,0,Len,53
10-02-2016,15:12:52,FE,2D,7A,54,1,B4,mavlink_camera_feedback_t,time_usec,1.45511E+15,lat,474213267,lng,380086217,alt_msl,378.87,alt_rel,300.16,roll,-0.16,pitch,-1.5,yaw,105.66,foc_len,0,img_idx,41,target_system,0,cam_idx,0,flags,0,Len,53
10-02-2016,15:13:00,FE,2D,BC,54,1,B4,mavlink_camera_feedback_t,time_usec,1.45511E+15,lat,474210786,lng,380099009,alt_msl,376.78,alt_rel,298.07,roll,1.11,pitch,0.59,yaw,105.62,foc_len,0,img_idx,42,target_system,0,cam_idx,0,flags,0,Len,53
10-02-2016,15:13:08,FE,2D,B,54,1,B4,mavlink_camera_feedback_t,time_usec,1.45511E+15,lat,474208132,lng,380111772,alt_msl,379.44,alt_rel,300.73,roll,1.15,pitch,-0.96,yaw,107.01,foc_len,0,img_idx,43,target_system,0,cam_idx,0,flags,0,Len,53
10-02-2016,15:13:16,FE,2D,56,54,1,B4,mavlink_camera_feedback_t,time_usec,1.45511E+15,lat,474205703,lng,380124665,alt_msl,379.27,alt_rel,300.56,roll,2.78,pitch,-3.17,yaw,107.23,foc_len,0,img_idx,44,target_system,0,cam_idx,0,flags,0,Len,53
10-02-2016,15:13:24,FE,2D,A7,54,1,B4,mavlink_camera_feedback_t,time_usec,1.45511E+15,lat,474202982,lng,380137423,alt_msl,379.89,alt_rel,301.18,roll,2.02,pitch,-0.88,yaw,104.68,foc_len,0,img_idx,45,target_system,0,cam_idx,0,flags,0,Len,53
10-02-2016,15:13:32,FE,2D,FA,54,1,B4,mavlink_camera_feedback_t,time_usec,1.45511E+15,lat,474200156,lng,380150204,alt_msl,376.19,alt_rel,297.48,roll,-0.4,pitch,-0.65,yaw,104.9,foc_len,0,img_idx,46,target_system,0,cam_idx,0,flags,0,Len,53
10-02-2016,15:13:40,FE,2D,47,54,1,B4,mavlink_camera_feedback_t,time_usec,1.45511E+15,lat,474197864,lng,380163228,alt_msl,378.78,alt_rel,300.07,roll,4.33,pitch,2.1,yaw,103.91,foc_len,0,img_idx,47,target_system,0,cam_idx,0,flags,0,Len,53
10-02-2016,15:13:49,FE,2D,B3,54,1,B4,mavlink_camera_feedback_t,time_usec,1.45511E+15,lat,474195232,lng,380176073,alt_msl,379.87,alt_rel,301.16,roll,3.1,pitch,-1.07,yaw,105.42,foc_len,0,img_idx,48,target_system,0,cam_idx,0,flags,0,Len,53
10-02-2016,15:13:57,FE,2D,C,54,1,B4,mavlink_camera_feedback_t,time_usec,1.45511E+15,lat,474192542,lng,380188832,alt_msl,377.08,alt_rel,298.37,roll,2.2,pitch,1.53,yaw,103.84,foc_len,0,img_idx,49,target_system,0,cam_idx,0,flags,0,Len,53
10-02-2016,15:14:06,FE,2D,81,54,1,B4,mavlink_camera_feedback_t,time_usec,1.45511E+15,lat,474190030,lng,380201795,alt_msl,377.48,alt_rel,298.77,roll,3.11,pitch,0.46,yaw,104.13,foc_len,0,img_idx,50,target_system,0,cam_idx,0,flags,0,Len,53
10-02-2016,15:14:15,FE,2D,DE,54,1,B4,mavlink_camera_feedback_t,time_usec,1.45511E+15,lat,474187335,lng,380214673,alt_msl,378.15,alt_rel,299.44,roll,2.41,pitch,1.17,yaw,104.29,foc_len,0,img_idx,51,target_system,0,cam_idx,0,flags,0,Len,53
10-02-2016,15:14:23,FE,2D,2E,54,1,B4,mavlink_camera_feedback_t,time_usec,1.45511E+15,lat,474184687,lng,380227721,alt_msl,378.81,alt_rel,300.1,roll,0.48,pitch,1.69,yaw,108.33,foc_len,0,img_idx,52,target_system,0,cam_idx,0,flags,0,Len,53
10-02-2016,15:14:30,FE,2D,67,54,1,B4,mavlink_camera_feedback_t,time_usec,1.45511E+15,lat,474182139,lng,380240723,alt_msl,381.77,alt_rel,303.06,roll,2.51,pitch,0.74,yaw,107.64,foc_len,0,img_idx,53,target_system,0,cam_idx,0,flags,0,Len,53
10-02-2016,15:14:38,FE,2D,B1,54,1,B4,mavlink_camera_feedback_t,time_usec,1.45511E+15,lat,474179392,lng,380253680,alt_msl,381.27,alt_rel,302.56,roll,2.66,pitch,-0.96,yaw,103.19,foc_len,0,img_idx,54,target_system,0,cam_idx,0,flags,0,Len,53
10-02-2016,15:14:46,FE,2D,EE,54,1,B4,mavlink_camera_feedback_t,time_usec,1.45511E+15,lat,474176856,lng,380266582,alt_msl,377.11,alt_rel,298.4,roll,0.99,pitch,-2.7,yaw,106.86,foc_len,0,img_idx,55,target_system,0,cam_idx,0,flags,0,Len,53
10-02-2016,15:14:53,FE,2D,20,54,1,B4,mavlink_camera_feedback_t,time_usec,1.45511E+15,lat,474174270,lng,380279355,alt_msl,378.18,alt_rel,299.47,roll,0.19,pitch,-0.86,yaw,111.19,foc_len,0,img_idx,56,target_system,0,cam_idx,0,flags,0,Len,53
10-02-2016,15:15:01,FE,2D,52,54,1,B4,mavlink_camera_feedback_t,time_usec,1.45511E+15,lat,474171557,lng,380292301,alt_msl,377.99,alt_rel,299.28,roll,-2.49,pitch,0.32,yaw,111.75,foc_len,0,img_idx,57,target_system,0,cam_idx,0,flags,0,Len,53
10-02-2016,15:15:08,FE,2D,87,54,1,B4,mavlink_camera_feedback_t,time_usec,1.45511E+15,lat,474168916,lng,380305044,alt_msl,379.24,alt_rel,300.53,roll,0.66,pitch,-0.47,yaw,106.05,foc_len,0,img_idx,58,target_system,0,cam_idx,0,flags,0,Len,53
10-02-2016,15:15:16,FE,2D,C4,54,1,B4,mavlink_camera_feedback_t,time_usec,1.45511E+15,lat,474166268,lng,380317928,alt_msl,380.09,alt_rel,301.38,roll,-1.94,pitch,-2.21,yaw,107.02,foc_len,0,img_idx,59,target_system,0,cam_idx,0,flags,0,Len,53
10-02-2016,15:15:23,FE,2D,0,54,1,B4,mavlink_camera_feedback_t,time_usec,1.45511E+15,lat,474163841,lng,380330776,alt_msl,378.1,alt_rel,299.39,roll,2.54,pitch,2,yaw,105.77,foc_len,0,img_idx,60,target_system,0,cam_idx,0,flags,0,Len,53
10-02-2016,15:15:31,FE,2D,46,54,1,B4,mavlink_camera_feedback_t,time_usec,1.45511E+15,lat,474161077,lng,380343751,alt_msl,376.01,alt_rel,297.3,roll,1.74,pitch,3.61,yaw,103.33,foc_len,0,img_idx,61,target_system,0,cam_idx,0,flags,0,Len,53
10-02-2016,15:15:39,FE,2D,83,54,1,B4,mavlink_camera_feedback_t,time_usec,1.45511E+15,lat,474158450,lng,380356677,alt_msl,379.54,alt_rel,300.83,roll,1.49,pitch,-0.25,yaw,106.97,foc_len,0,img_idx,62,target_system,0,cam_idx,0,flags,0,Len,53
10-02-2016,15:15:46,FE,2D,BB,54,1,B4,mavlink_camera_feedback_t,time_usec,1.45511E+15,lat,474155859,lng,380369726,alt_msl,379.95,alt_rel,301.24,roll,1.12,pitch,-0.41,yaw,105.43,foc_len,0,img_idx,63,target_system,0,cam_idx,0,flags,0,Len,53
10-02-2016,15:15:54,FE,2D,3,54,1,B4,mavlink_camera_feedback_t,time_usec,1.45511E+15,lat,474153232,lng,380382700,alt_msl,377.78,alt_rel,299.07,roll,1.69,pitch,-1.62,yaw,107.36,foc_len,0,img_idx,64,target_system,0,cam_idx,0,flags,0,Len,53
10-02-2016,15:16:02,FE,2D,43,54,1,B4,mavlink_camera_feedback_t,time_usec,1.45511E+15,lat,474150657,lng,380395517,alt_msl,378.5,alt_rel,299.79,roll,2.6,pitch,1.48,yaw,106.97,foc_len,0,img_idx,65,target_system,0,cam_idx,0,flags,0,Len,53
10-02-2016,15:16:10,FE,2D,9A,54,1,B4,mavlink_camera_feedback_t,time_usec,1.45511E+15,lat,474147871,lng,380408314,alt_msl,377.83,alt_rel,299.12,roll,-0.34,pitch,2.89,yaw,101.08,foc_len,0,img_idx,66,target_system,0,cam_idx,0,flags,0,Len,53
10-02-2016,15:16:18,FE,2D,EC,54,1,B4,mavlink_camera_feedback_t,time_usec,1.45511E+15,lat,474145182,lng,380421276,alt_msl,379.06,alt_rel,300.35,roll,-2.81,pitch,1.27,yaw,109.47,foc_len,0,img_idx,67,target_system,0,cam_idx,0,flags,0,Len,53
10-02-2016,15:16:27,FE,2D,50,54,1,B4,mavlink_camera_feedback_t,time_usec,1.45511E+15,lat,474142823,lng,380434181,alt_msl,376.45,alt_rel,297.74,roll,4.81,pitch,1.64,yaw,105.21,foc_len,0,img_idx,68,target_system,0,cam_idx,0,flags,0,Len,53
10-02-2016,15:16:35,FE,2D,A1,54,1,B4,mavlink_camera_feedback_t,time_usec,1.45511E+15,lat,474140176,lng,380446878,alt_msl,380.37,alt_rel,301.66,roll,4.52,pitch,0.99,yaw,105.79,foc_len,0,img_idx,69,target_system,0,cam_idx,0,flags,0,Len,53
10-02-2016,15:16:43,FE,2D,EE,54,1,B4,mavlink_camera_feedback_t,time_usec,1.45511E+15,lat,474137472,lng,380459816,alt_msl,380.21,alt_rel,301.5,roll,-0.03,pitch,-2.7,yaw,109.12,foc_len,0,img_idx,70,target_system,0,cam_idx,0,flags,0,Len,53
10-02-2016,15:16:51,FE,2D,4A,54,1,B4,mavlink_camera_feedback_t,time_usec,1.45511E+15,lat,474134946,lng,380472815,alt_msl,377.47,alt_rel,298.76,roll,3.1,pitch,1.27,yaw,104.06,foc_len,0,img_idx,71,target_system,0,cam_idx,0,flags,0,Len,53
10-02-2016,15:16:59,FE,2D,89,54,1,B4,mavlink_camera_feedback_t,time_usec,1.45511E+15,lat,474127293,lng,380479775,alt_msl,377.57,alt_rel,298.86,roll,3.14,pitch,2.64,yaw,162.82,foc_len,0,img_idx,72,target_system,0,cam_idx,0,flags,0,Len,53
10-02-2016,15:17:05,FE,2D,88,54,1,B4,mavlink_camera_feedback_t,time_usec,1.45511E+15,lat,474118181,lng,380480104,alt_msl,377.7,alt_rel,298.99,roll,2.79,pitch,0.85,yaw,166.28,foc_len,0,img_idx,73,target_system,0,cam_idx,0,flags,0,Len,53
10-02-2016,15:17:12,FE,2D,96,54,1,B4,mavlink_camera_feedback_t,time_usec,1.45511E+15,lat,474108651,lng,380480784,alt_msl,379.63,alt_rel,300.92,roll,0.19,pitch,0.63,yaw,177.66,foc_len,0,img_idx,74,target_system,0,cam_idx,0,flags,0,Len,53
10-02-2016,15:17:18,FE,2D,99,54,1,B4,mavlink_camera_feedback_t,time_usec,1.45511E+15,lat,474099496,lng,380481180,alt_msl,379.18,alt_rel,300.47,roll,1.72,pitch,0.98,yaw,177.16,foc_len,0,img_idx,75,target_system,0,cam_idx,0,flags,0,Len,53
10-02-2016,15:17:24,FE,2D,A0,54,1,B4,mavlink_camera_feedback_t,time_usec,1.45511E+15,lat,474090347,lng,380481781,alt_msl,378.21,alt_rel,299.5,roll,1.96,pitch,1.17,yaw,176.12,foc_len,0,img_idx,76,target_system,0,cam_idx,0,flags,0,Len,53
10-02-2016,15:17:40,FE,2D,2A,54,1,B4,mavlink_camera_feedback_t,time_usec,1.45511E+15,lat,474091390,lng,380439582,alt_msl,382.99,alt_rel,304.28,roll,-13.16,pitch,-2.7,yaw,291.1,foc_len,0,img_idx,80,target_system,0,cam_idx,0,flags,0,Len,53
10-02-2016,15:17:43,FE,2D,B9,54,1,B4,mavlink_camera_feedback_t,time_usec,1.45511E+15,lat,474093377,lng,380426111,alt_msl,380.69,alt_rel,301.98,roll,3.79,pitch,-0.56,yaw,287.79,foc_len,0,img_idx,81,target_system,0,cam_idx,0,flags,0,Len,53
10-02-2016,15:17:53,FE,2D,60,54,1,B4,mavlink_camera_feedback_t,time_usec,1.45511E+15,lat,474101041,lng,380386664,alt_msl,380.36,alt_rel,301.65,roll,1.69,pitch,-0.74,yaw,287.98,foc_len,0,img_idx,84,target_system,0,cam_idx,0,flags,0,Len,53
10-02-2016,15:17:57,FE,2D,EE,54,1,B4,mavlink_camera_feedback_t,time_usec,1.45511E+15,lat,474103608,lng,380373641,alt_msl,382.23,alt_rel,303.52,roll,-2.04,pitch,-1.6,yaw,292.71,foc_len,0,img_idx,85,target_system,0,cam_idx,0,flags,0,Len,53
10-02-2016,15:18:00,FE,2D,83,54,1,B4,mavlink_camera_feedback_t,time_usec,1.45511E+15,lat,474106318,lng,380360201,alt_msl,380.44,alt_rel,301.73,roll,1.61,pitch,-2.45,yaw,284.45,foc_len,0,img_idx,86,target_system,0,cam_idx,0,flags,0,Len,53
10-02-2016,15:18:04,FE,2D,13,54,1,B4,mavlink_camera_feedback_t,time_usec,1.45511E+15,lat,474108770,lng,380347305,alt_msl,377.91,alt_rel,299.2,roll,0.37,pitch,-1.99,yaw,283.87,foc_len,0,img_idx,87,target_system,0,cam_idx,0,flags,0,Len,53
10-02-2016,15:18:07,FE,2D,9F,54,1,B4,mavlink_camera_feedback_t,time_usec,1.45511E+15,lat,474111234,lng,380334056,alt_msl,376.73,alt_rel,298.02,roll,2.67,pitch,1.24,yaw,285.25,foc_len,0,img_idx,88,target_system,0,cam_idx,0,flags,0,Len,53
10-02-2016,15:18:10,FE,2D,2A,54,1,B4,mavlink_camera_feedback_t,time_usec,1.45511E+15,lat,474113781,lng,380320958,alt_msl,378.95,alt_rel,300.24,roll,2.28,pitch,-0.32,yaw,286.34,foc_len,0,img_idx,89,target_system,0,cam_idx,0,flags,0,Len,53
10-02-2016,15:18:14,FE,2D,BB,54,1,B4,mavlink_camera_feedback_t,time_usec,1.45511E+15,lat,474116376,lng,380308033,alt_msl,378.3,alt_rel,299.59,roll,-0.38,pitch,-0.57,yaw,287.72,foc_len,0,img_idx,90,target_system,0,cam_idx,0,flags,0,Len,53
10-02-2016,15:18:17,FE,2D,45,54,1,B4,mavlink_camera_feedback_t,time_usec,1.45511E+15,lat,474118904,lng,380294895,alt_msl,378.16,alt_rel,299.45,roll,1.05,pitch,0.31,yaw,288.12,foc_len,0,img_idx,91,target_system,0,cam_idx,0,flags,0,Len,53
10-02-2016,15:18:21,FE,2D,D8,54,1,B4,mavlink_camera_feedback_t,time_usec,1.45511E+15,lat,474121476,lng,380281822,alt_msl,378.23,alt_rel,299.52,roll,2.47,pitch,0.69,yaw,285.67,foc_len,0,img_idx,92,target_system,0,cam_idx,0,flags,0,Len,53
10-02-2016,15:18:24,FE,2D,62,54,1,B4,mavlink_camera_feedback_t,time_usec,1.45511E+15,lat,474124132,lng,380268700,alt_msl,377.76,alt_rel,299.05,roll,0.49,pitch,0.02,yaw,285.8,foc_len,0,img_idx,93,target_system,0,cam_idx,0,flags,0,Len,53
10-02-2016,15:18:28,FE,2D,F8,54,1,B4,mavlink_camera_feedback_t,time_usec,1.45511E+15,lat,474126797,lng,380255255,alt_msl,377.9,alt_rel,299.19,roll,0.83,pitch,1.47,yaw,284.81,foc_len,0,img_idx,94,target_system,0,cam_idx,0,flags,0,Len,53
10-02-2016,15:18:31,FE,2D,84,54,1,B4,mavlink_camera_feedback_t,time_usec,1.45511E+15,lat,474129395,lng,380241816,alt_msl,379.13,alt_rel,300.42,roll,2.01,pitch,1.13,yaw,284.05,foc_len,0,img_idx,95,target_system,0,cam_idx,0,flags,0,Len,53
10-02-2016,15:18:34,FE,2D,14,54,1,B4,mavlink_camera_feedback_t,time_usec,1.45511E+15,lat,474131935,lng,380228587,alt_msl,378.65,alt_rel,299.94,roll,2.46,pitch,-0.71,yaw,283.97,foc_len,0,img_idx,96,target_system,0,cam_idx,0,flags,0,Len,53
10-02-2016,15:18:38,FE,2D,A2,54,1,B4,mavlink_camera_feedback_t,time_usec,1.45511E+15,lat,474134510,lng,380215105,alt_msl,378.59,alt_rel,299.88,roll,2.35,pitch,1.19,yaw,289.02,foc_len,0,img_idx,97,target_system,0,cam_idx,0,flags,0,Len,53
10-02-2016,15:18:41,FE,2D,2F,54,1,B4,mavlink_camera_feedback_t,time_usec,1.45511E+15,lat,474137238,lng,380201881,alt_msl,378.97,alt_rel,300.26,roll,-1.59,pitch,-0.41,yaw,289,foc_len,0,img_idx,98,target_system,0,cam_idx,0,flags,0,Len,53
10-02-2016,15:18:45,FE,2D,BF,54,1,B4,mavlink_camera_feedback_t,time_usec,1.45511E+15,lat,474139843,lng,380188419,alt_msl,378.6,alt_rel,299.89,roll,3.3,pitch,0.2,yaw,283.88,foc_len,0,img_idx,99,target_system,0,cam_idx,0,flags,0,Len,53
10-02-2016,15:18:48,FE,2D,42,54,1,B4,mavlink_camera_feedback_t,time_usec,1.45511E+15,lat,474142354,lng,380175607,alt_msl,378.47,alt_rel,299.76,roll,-0.47,pitch,0.49,yaw,288,foc_len,0,img_idx,100,target_system,0,cam_idx,0,flags,0,Len,53
10-02-2016,15:18:51,FE,2D,D1,54,1,B4,mavlink_camera_feedback_t,time_usec,1.45511E+15,lat,474144998,lng,380162095,alt_msl,379.13,alt_rel,300.42,roll,2.64,pitch,-0.13,yaw,285.59,foc_len,0,img_idx,101,target_system,0,cam_idx,0,flags,0,Len,53
10-02-2016,15:18:54,FE,2D,60,54,1,B4,mavlink_camera_feedback_t,time_usec,1.45511E+15,lat,474147700,lng,380148580,alt_msl,379.31,alt_rel,300.6,roll,-0.54,pitch,0.67,yaw,287.35,foc_len,0,img_idx,102,target_system,0,cam_idx,0,flags,0,Len,53
10-02-2016,15:18:58,FE,2D,E6,54,1,B4,mavlink_camera_feedback_t,time_usec,1.45511E+15,lat,474150348,lng,380135299,alt_msl,379.16,alt_rel,300.45,roll,0.17,pitch,-1.66,yaw,286.18,foc_len,0,img_idx,103,target_system,0,cam_idx,0,flags,0,Len,53
10-02-2016,15:19:01,FE,2D,6F,54,1,B4,mavlink_camera_feedback_t,time_usec,1.45511E+15,lat,474152765,lng,380122398,alt_msl,377.44,alt_rel,298.73,roll,3.86,pitch,1.21,yaw,283.48,foc_len,0,img_idx,104,target_system,0,cam_idx,0,flags,0,Len,53
10-02-2016,15:19:04,FE,2D,F7,54,1,B4,mavlink_camera_feedback_t,time_usec,1.45511E+15,lat,474155285,lng,380109479,alt_msl,377.94,alt_rel,299.23,roll,0.08,pitch,1.57,yaw,288.7,foc_len,0,img_idx,105,target_system,0,cam_idx,0,flags,0,Len,53
10-02-2016,15:19:07,FE,2D,82,54,1,B4,mavlink_camera_feedback_t,time_usec,1.45511E+15,lat,474157815,lng,380096724,alt_msl,378.39,alt_rel,299.68,roll,1.13,pitch,1.32,yaw,284.28,foc_len,0,img_idx,106,target_system,0,cam_idx,0,flags,0,Len,53
10-02-2016,15:19:11,FE,2D,C,54,1,B4,mavlink_camera_feedback_t,time_usec,1.45511E+15,lat,474160409,lng,380083794,alt_msl,379.58,alt_rel,300.87,roll,3.01,pitch,1.7,yaw,287.14,foc_len,0,img_idx,107,target_system,0,cam_idx,0,flags,0,Len,53
10-02-2016,15:19:15,FE,2D,A7,54,1,B4,mavlink_camera_feedback_t,time_usec,1.45511E+15,lat,474163022,lng,380070344,alt_msl,375.83,alt_rel,297.12,roll,1.47,pitch,0.57,yaw,285.25,foc_len,0,img_idx,108,target_system,0,cam_idx,0,flags,0,Len,53
10-02-2016,15:19:18,FE,2D,31,54,1,B4,mavlink_camera_feedback_t,time_usec,1.45511E+15,lat,474165540,lng,380057546,alt_msl,376.12,alt_rel,297.41,roll,2.63,pitch,2.28,yaw,283.78,foc_len,0,img_idx,109,target_system,0,cam_idx,0,flags,0,Len,53
10-02-2016,15:19:21,FE,2D,C9,54,1,B4,mavlink_camera_feedback_t,time_usec,1.45511E+15,lat,474168145,lng,380044183,alt_msl,375.85,alt_rel,297.14,roll,1.55,pitch,1.95,yaw,286.26,foc_len,0,img_idx,110,target_system,0,cam_idx,0,flags,0,Len,53
10-02-2016,15:19:25,FE,2D,61,54,1,B4,mavlink_camera_feedback_t,time_usec,1.45511E+15,lat,474170704,lng,380030737,alt_msl,375.74,alt_rel,297.03,roll,0.05,pitch,2.73,yaw,287.56,foc_len,0,img_idx,111,target_system,0,cam_idx,0,flags,0,Len,53
10-02-2016,15:19:29,FE,2D,FA,54,1,B4,mavlink_camera_feedback_t,time_usec,1.45511E+15,lat,474173372,lng,380017372,alt_msl,378.58,alt_rel,299.87,roll,-0.61,pitch,1.43,yaw,290.05,foc_len,0,img_idx,112,target_system,0,cam_idx,0,flags,0,Len,53
10-02-2016,15:19:32,FE,2D,89,54,1,B4,mavlink_camera_feedback_t,time_usec,1.45511E+15,lat,474176059,lng,380004192,alt_msl,379.24,alt_rel,300.53,roll,1.53,pitch,0.78,yaw,287.34,foc_len,0,img_idx,113,target_system,0,cam_idx,0,flags,0,Len,53
10-02-2016,15:19:36,FE,2D,22,54,1,B4,mavlink_camera_feedback_t,time_usec,1.45511E+15,lat,474178630,lng,379990957,alt_msl,377.33,alt_rel,298.62,roll,2.62,pitch,1.43,yaw,287.76,foc_len,0,img_idx,114,target_system,0,cam_idx,0,flags,0,Len,53
10-02-2016,15:19:40,FE,2D,B9,54,1,B4,mavlink_camera_feedback_t,time_usec,1.45511E+15,lat,474181222,lng,379977550,alt_msl,378.74,alt_rel,300.03,roll,3.32,pitch,1.48,yaw,284.47,foc_len,0,img_idx,115,target_system,0,cam_idx,0,flags,0,Len,53
10-02-2016,15:19:43,FE,2D,52,54,1,B4,mavlink_camera_feedback_t,time_usec,1.45511E+15,lat,474183849,lng,379964252,alt_msl,377.74,alt_rel,299.03,roll,0.55,pitch,1.36,yaw,289.11,foc_len,0,img_idx,116,target_system,0,cam_idx,0,flags,0,Len,53
10-02-2016,15:19:47,FE,2D,EB,54,1,B4,mavlink_camera_feedback_t,time_usec,1.45511E+15,lat,474186425,lng,379950947,alt_msl,377.23,alt_rel,298.52,roll,1.82,pitch,1.63,yaw,285.95,foc_len,0,img_idx,117,target_system,0,cam_idx,0,flags,0,Len,53
10-02-2016,15:19:50,FE,2D,76,54,1,B4,mavlink_camera_feedback_t,time_usec,1.45511E+15,lat,474188958,lng,379938098,alt_msl,376.85,alt_rel,298.14,roll,2.1,pitch,4.7,yaw,282.74,foc_len,0,img_idx,118,target_system,0,cam_idx,0,flags,0,Len,53
10-02-2016,15:19:54,FE,2D,F,54,1,B4,mavlink_camera_feedback_t,time_usec,1.45511E+15,lat,474191625,lng,379924609,alt_msl,377.9,alt_rel,299.19,roll,1.19,pitch,3.87,yaw,285.64,foc_len,0,img_idx,119,target_system,0,cam_idx,0,flags,0,Len,53
10-02-2016,15:19:57,FE,2D,A4,54,1,B4,mavlink_camera_feedback_t,time_usec,1.45511E+15,lat,474194241,lng,379911262,alt_msl,379.82,alt_rel,301.11,roll,0.45,pitch,1.26,yaw,289.53,foc_len,0,img_idx,120,target_system,0,cam_idx,0,flags,0,Len,53
10-02-2016,15:20:01,FE,2D,3B,54,1,B4,mavlink_camera_feedback_t,time_usec,1.45511E+15,lat,474196904,lng,379898019,alt_msl,380.87,alt_rel,302.16,roll,0.74,pitch,0.19,yaw,285.31,foc_len,0,img_idx,121,target_system,0,cam_idx,0,flags,0,Len,53
10-02-2016,15:20:04,FE,2D,CE,54,1,B4,mavlink_camera_feedback_t,time_usec,1.45511E+15,lat,474199449,lng,379884686,alt_msl,378.77,alt_rel,300.06,roll,0.98,pitch,1.33,yaw,283.41,foc_len,0,img_idx,122,target_system,0,cam_idx,0,flags,0,Len,53
10-02-2016,15:20:08,FE,2D,6E,54,1,B4,mavlink_camera_feedback_t,time_usec,1.45511E+15,lat,474201987,lng,379871285,alt_msl,378.85,alt_rel,300.14,roll,2.27,pitch,0.8,yaw,286.15,foc_len,0,img_idx,123,target_system,0,cam_idx,0,flags,0,Len,53
10-02-2016,15:20:15,FE,2D,96,54,1,B4,mavlink_camera_feedback_t,time_usec,1.45511E+15,lat,474207196,lng,379845232,alt_msl,378.31,alt_rel,299.6,roll,1.44,pitch,0.98,yaw,284.92,foc_len,0,img_idx,125,target_system,0,cam_idx,0,flags,0,Len,53
10-02-2016,15:20:19,FE,2D,20,54,1,B4,mavlink_camera_feedback_t,time_usec,1.45511E+15,lat,474209706,lng,379832463,alt_msl,378.42,alt_rel,299.71,roll,0.41,pitch,2.15,yaw,285.99,foc_len,0,img_idx,126,target_system,0,cam_idx,0,flags,0,Len,53
10-02-2016,15:20:22,FE,2D,B9,54,1,B4,mavlink_camera_feedback_t,time_usec,1.45511E+15,lat,474212256,lng,379819115,alt_msl,378.58,alt_rel,299.87,roll,1.91,pitch,0.88,yaw,287.37,foc_len,0,img_idx,127,target_system,0,cam_idx,0,flags,0,Len,53
10-02-2016,15:20:26,FE,2D,59,54,1,B4,mavlink_camera_feedback_t,time_usec,1.45511E+15,lat,474215038,lng,379805045,alt_msl,378.48,alt_rel,299.77,roll,4.16,pitch,2.07,yaw,284.54,foc_len,0,img_idx,128,target_system,0,cam_idx,0,flags,0,Len,53
10-02-2016,15:20:29,FE,2D,F3,54,1,B4,mavlink_camera_feedback_t,time_usec,1.45511E+15,lat,474217745,lng,379791868,alt_msl,379.46,alt_rel,300.75,roll,-0.46,pitch,0.01,yaw,287.43,foc_len,0,img_idx,129,target_system,0,cam_idx,0,flags,0,Len,53
10-02-2016,15:20:33,FE,2D,86,54,1,B4,mavlink_camera_feedback_t,time_usec,1.45511E+15,lat,474220396,lng,379778519,alt_msl,378.2,alt_rel,299.49,roll,0.18,pitch,1.34,yaw,284.95,foc_len,0,img_idx,130,target_system,0,cam_idx,0,flags,0,Len,53
10-02-2016,15:20:37,FE,2D,1F,54,1,B4,mavlink_camera_feedback_t,time_usec,1.45511E+15,lat,474222904,lng,379765173,alt_msl,378.28,alt_rel,299.57,roll,2.08,pitch,1.05,yaw,285.45,foc_len,0,img_idx,131,target_system,0,cam_idx,0,flags,0,Len,53
10-02-2016,15:20:40,FE,2D,B6,54,1,B4,mavlink_camera_feedback_t,time_usec,1.45511E+15,lat,474225494,lng,379751826,alt_msl,379.1,alt_rel,300.39,roll,1.76,pitch,1.44,yaw,286.27,foc_len,0,img_idx,132,target_system,0,cam_idx,0,flags,0,Len,53
10-02-2016,15:20:44,FE,2D,50,54,1,B4,mavlink_camera_feedback_t,time_usec,1.45511E+15,lat,474225916,lng,379737946,alt_msl,374.18,alt_rel,295.47,roll,-42.79,pitch,-0.45,yaw,221.68,foc_len,0,img_idx,133,target_system,0,cam_idx,0,flags,0,Len,53
10-02-2016,15:20:52,FE,2D,8F,54,1,B4,mavlink_camera_feedback_t,time_usec,1.45511E+15,lat,474216872,lng,379736394,alt_msl,381.05,alt_rel,302.34,roll,9.64,pitch,-0.3,yaw,152.57,foc_len,0,img_idx,134,target_system,0,cam_idx,0,flags,0,Len,53
10-02-2016,15:20:59,FE,2D,C0,54,1,B4,mavlink_camera_feedback_t,time_usec,1.45511E+15,lat,474207898,lng,379733844,alt_msl,380.71,alt_rel,302,roll,-1.11,pitch,-0.68,yaw,192.04,foc_len,0,img_idx,135,target_system,0,cam_idx,0,flags,0,Len,53
10-02-2016,15:21:06,FE,2D,D4,54,1,B4,mavlink_camera_feedback_t,time_usec,1.45511E+15,lat,474199195,lng,379730358,alt_msl,377.36,alt_rel,298.65,roll,4.03,pitch,0.71,yaw,190.04,foc_len,0,img_idx,136,target_system,0,cam_idx,0,flags,0,Len,53
10-02-2016,15:21:12,FE,2D,E2,54,1,B4,mavlink_camera_feedback_t,time_usec,1.45511E+15,lat,474190481,lng,379726488,alt_msl,381.25,alt_rel,302.54,roll,0.28,pitch,-1.72,yaw,196.05,foc_len,0,img_idx,137,target_system,0,cam_idx,0,flags,0,Len,53
10-02-2016,15:21:21,FE,2D,49,54,1,B4,mavlink_camera_feedback_t,time_usec,1.45511E+15,lat,474183883,lng,379735534,alt_msl,379.34,alt_rel,300.63,roll,-4.47,pitch,6.28,yaw,136.08,foc_len,0,img_idx,138,target_system,0,cam_idx,0,flags,0,Len,53
10-02-2016,15:21:29,FE,2D,B2,54,1,B4,mavlink_camera_feedback_t,time_usec,1.45511E+15,lat,474181312,lng,379748418,alt_msl,382.28,alt_rel,303.57,roll,1.83,pitch,-1.95,yaw,114.37,foc_len,0,img_idx,139,target_system,0,cam_idx,0,flags,0,Len,53
10-02-2016,15:21:38,FE,2D,F,54,1,B4,mavlink_camera_feedback_t,time_usec,1.45511E+15,lat,474178997,lng,379761325,alt_msl,379.32,alt_rel,300.61,roll,4.02,pitch,-0.88,yaw,107.47,foc_len,0,img_idx,140,target_system,0,cam_idx,0,flags,0,Len,53
10-02-2016,15:21:46,FE,2D,6D,54,1,B4,mavlink_camera_feedback_t,time_usec,1.45511E+15,lat,474176497,lng,379774307,alt_msl,380.6,alt_rel,301.89,roll,-0.57,pitch,-3.5,yaw,109.52,foc_len,0,img_idx,141,target_system,0,cam_idx,0,flags,0,Len,53
10-02-2016,15:21:54,FE,2D,BE,54,1,B4,mavlink_camera_feedback_t,time_usec,1.45511E+15,lat,474174102,lng,379787343,alt_msl,381.27,alt_rel,302.56,roll,-0.76,pitch,-2.77,yaw,108.85,foc_len,0,img_idx,142,target_system,0,cam_idx,0,flags,0,Len,53
10-02-2016,15:22:03,FE,2D,28,54,1,B4,mavlink_camera_feedback_t,time_usec,1.45511E+15,lat,474171688,lng,379800448,alt_msl,377.78,alt_rel,299.07,roll,1.95,pitch,0.24,yaw,105.9,foc_len,0,img_idx,143,target_system,0,cam_idx,0,flags,0,Len,53
10-02-2016,15:22:11,FE,2D,7D,54,1,B4,mavlink_camera_feedback_t,time_usec,1.45511E+15,lat,474169322,lng,379813372,alt_msl,377.96,alt_rel,299.25,roll,3.33,pitch,1.63,yaw,102.13,foc_len,0,img_idx,144,target_system,0,cam_idx,0,flags,0,Len,53
10-02-2016,15:22:19,FE,2D,D1,54,1,B4,mavlink_camera_feedback_t,time_usec,1.45511E+15,lat,474166942,lng,379826411,alt_msl,379.37,alt_rel,300.66,roll,2.46,pitch,0.38,yaw,106.14,foc_len,0,img_idx,145,target_system,0,cam_idx,0,flags,0,Len,53
10-02-2016,15:22:28,FE,2D,2B,54,1,B4,mavlink_camera_feedback_t,time_usec,1.45511E+15,lat,474164490,lng,379839275,alt_msl,379.16,alt_rel,300.45,roll,1.86,pitch,-0.57,yaw,109.09,foc_len,0,img_idx,146,target_system,0,cam_idx,0,flags,0,Len,53
10-02-2016,15:22:36,FE,2D,79,54,1,B4,mavlink_camera_feedback_t,time_usec,1.45511E+15,lat,474161999,lng,379852061,alt_msl,376.11,alt_rel,297.4,roll,0.18,pitch,0.7,yaw,108.8,foc_len,0,img_idx,147,target_system,0,cam_idx,0,flags,0,Len,53
10-02-2016,15:22:44,FE,2D,C9,54,1,B4,mavlink_camera_feedback_t,time_usec,1.45511E+15,lat,474159430,lng,379865329,alt_msl,383.07,alt_rel,304.36,roll,-0.16,pitch,-1.29,yaw,104.18,foc_len,0,img_idx,148,target_system,0,cam_idx,0,flags,0,Len,53
10-02-2016,15:22:51,FE,2D,3,54,1,B4,mavlink_camera_feedback_t,time_usec,1.45511E+15,lat,474156952,lng,379878244,alt_msl,375.41,alt_rel,296.7,roll,3.56,pitch,4.31,yaw,101.11,foc_len,0,img_idx,149,target_system,0,cam_idx,0,flags,0,Len,53
10-02-2016,15:22:59,FE,2D,37,54,1,B4,mavlink_camera_feedback_t,time_usec,1.45511E+15,lat,474154540,lng,379891087,alt_msl,380.33,alt_rel,301.62,roll,-1.74,pitch,1.83,yaw,108.98,foc_len,0,img_idx,150,target_system,0,cam_idx,0,flags,0,Len,53
10-02-2016,15:23:07,FE,2D,8D,54,1,B4,mavlink_camera_feedback_t,time_usec,1.45511E+15,lat,474152064,lng,379904143,alt_msl,383.03,alt_rel,304.32,roll,2.45,pitch,-7.03,yaw,106.52,foc_len,0,img_idx,151,target_system,0,cam_idx,0,flags,0,Len,53
10-02-2016,15:23:14,FE,2D,CD,54,1,B4,mavlink_camera_feedback_t,time_usec,1.45511E+15,lat,474149512,lng,379917105,alt_msl,379.13,alt_rel,300.42,roll,-3.11,pitch,-3.74,yaw,112.39,foc_len,0,img_idx,152,target_system,0,cam_idx,0,flags,0,Len,53
10-02-2016,15:23:22,FE,2D,FC,54,1,B4,mavlink_camera_feedback_t,time_usec,1.45511E+15,lat,474147306,lng,379930015,alt_msl,376.19,alt_rel,297.48,roll,1.8,pitch,1.14,yaw,99.81,foc_len,0,img_idx,153,target_system,0,cam_idx,0,flags,0,Len,53
10-02-2016,15:23:29,FE,2D,35,54,1,B4,mavlink_camera_feedback_t,time_usec,1.45511E+15,lat,474145106,lng,379942914,alt_msl,378.58,alt_rel,299.87,roll,4.63,pitch,1.1,yaw,106.58,foc_len,0,img_idx,154,target_system,0,cam_idx,0,flags,0,Len,53
10-02-2016,15:23:38,FE,2D,8F,54,1,B4,mavlink_camera_feedback_t,time_usec,1.45511E+15,lat,474142384,lng,379955711,alt_msl,377.73,alt_rel,299.02,roll,-2.21,pitch,1.65,yaw,108.02,foc_len,0,img_idx,155,target_system,0,cam_idx,0,flags,0,Len,53
10-02-2016,15:23:46,FE,2D,E8,54,1,B4,mavlink_camera_feedback_t,time_usec,1.45511E+15,lat,474140073,lng,379968756,alt_msl,377.42,alt_rel,298.71,roll,1.65,pitch,1.9,yaw,104.04,foc_len,0,img_idx,156,target_system,0,cam_idx,0,flags,0,Len,53
10-02-2016,15:23:54,FE,2D,42,54,1,B4,mavlink_camera_feedback_t,time_usec,1.45511E+15,lat,474137758,lng,379981803,alt_msl,377.85,alt_rel,299.14,roll,1.88,pitch,1.67,yaw,105.47,foc_len,0,img_idx,157,target_system,0,cam_idx,0,flags,0,Len,53
10-02-2016,15:24:02,FE,2D,87,54,1,B4,mavlink_camera_feedback_t,time_usec,1.45511E+15,lat,474135346,lng,379994652,alt_msl,378.91,alt_rel,300.2,roll,0.46,pitch,0.79,yaw,105.07,foc_len,0,img_idx,158,target_system,0,cam_idx,0,flags,0,Len,53
10-02-2016,15:24:10,FE,2D,CB,54,1,B4,mavlink_camera_feedback_t,time_usec,1.45511E+15,lat,474132782,lng,380007603,alt_msl,378.42,alt_rel,299.71,roll,0.92,pitch,1.66,yaw,103.42,foc_len,0,img_idx,159,target_system,0,cam_idx,0,flags,0,Len,53
10-02-2016,15:24:18,FE,2D,A,54,1,B4,mavlink_camera_feedback_t,time_usec,1.45511E+15,lat,474130391,lng,380020614,alt_msl,379.77,alt_rel,301.06,roll,-1.41,pitch,0.73,yaw,105.84,foc_len,0,img_idx,160,target_system,0,cam_idx,0,flags,0,Len,53
10-02-2016,15:24:25,FE,2D,40,54,1,B4,mavlink_camera_feedback_t,time_usec,1.45511E+15,lat,474128028,lng,380033466,alt_msl,380.42,alt_rel,301.71,roll,2.34,pitch,-1.23,yaw,106.98,foc_len,0,img_idx,161,target_system,0,cam_idx,0,flags,0,Len,53
10-02-2016,15:24:33,FE,2D,73,54,1,B4,mavlink_camera_feedback_t,time_usec,1.45511E+15,lat,474125376,lng,380046262,alt_msl,379.71,alt_rel,301,roll,-2.32,pitch,0.53,yaw,103.95,foc_len,0,img_idx,162,target_system,0,cam_idx,0,flags,0,Len,53
10-02-2016,15:24:40,FE,2D,B6,54,1,B4,mavlink_camera_feedback_t,time_usec,1.45511E+15,lat,474123000,lng,380059346,alt_msl,378.37,alt_rel,299.66,roll,1.85,pitch,-0.04,yaw,106.32,foc_len,0,img_idx,163,target_system,0,cam_idx,0,flags,0,Len,53
10-02-2016,15:24:48,FE,2D,EF,54,1,B4,mavlink_camera_feedback_t,time_usec,1.45511E+15,lat,474120713,lng,380072294,alt_msl,379.69,alt_rel,300.98,roll,1.26,pitch,0.03,yaw,109.26,foc_len,0,img_idx,164,target_system,0,cam_idx,0,flags,0,Len,53
10-02-2016,15:24:55,FE,2D,2C,54,1,B4,mavlink_camera_feedback_t,time_usec,1.45511E+15,lat,474118308,lng,380085330,alt_msl,378.95,alt_rel,300.24,roll,5.15,pitch,-1.62,yaw,104.49,foc_len,0,img_idx,165,target_system,0,cam_idx,0,flags,0,Len,53
10-02-2016,15:25:02,FE,2D,55,54,1,B4,mavlink_camera_feedback_t,time_usec,1.45511E+15,lat,474115806,lng,380098176,alt_msl,380.62,alt_rel,301.91,roll,-0.21,pitch,-1.95,yaw,106.48,foc_len,0,img_idx,166,target_system,0,cam_idx,0,flags,0,Len,53
10-02-2016,15:25:10,FE,2D,8A,54,1,B4,mavlink_camera_feedback_t,time_usec,1.45511E+15,lat,474113196,lng,380111213,alt_msl,378.89,alt_rel,300.18,roll,4.42,pitch,-0.88,yaw,102.51,foc_len,0,img_idx,167,target_system,0,cam_idx,0,flags,0,Len,53
10-02-2016,15:25:18,FE,2D,C9,54,1,B4,mavlink_camera_feedback_t,time_usec,1.45511E+15,lat,474110924,lng,380124151,alt_msl,377.69,alt_rel,298.98,roll,1.67,pitch,0.91,yaw,103.95,foc_len,0,img_idx,168,target_system,0,cam_idx,0,flags,0,Len,53
10-02-2016,15:25:25,FE,2D,D,54,1,B4,mavlink_camera_feedback_t,time_usec,1.45511E+15,lat,474108539,lng,380137184,alt_msl,377.07,alt_rel,298.36,roll,1.65,pitch,1.68,yaw,103.76,foc_len,0,img_idx,169,target_system,0,cam_idx,0,flags,0,Len,53
10-02-2016,15:25:33,FE,2D,51,54,1,B4,mavlink_camera_feedback_t,time_usec,1.45511E+15,lat,474106138,lng,380150281,alt_msl,379.19,alt_rel,300.48,roll,2.14,pitch,0.63,yaw,106.75,foc_len,0,img_idx,170,target_system,0,cam_idx,0,flags,0,Len,53
10-02-2016,15:25:41,FE,2D,9A,54,1,B4,mavlink_camera_feedback_t,time_usec,1.45511E+15,lat,474103703,lng,380163104,alt_msl,380.09,alt_rel,301.38,roll,0.85,pitch,-1.4,yaw,107.89,foc_len,0,img_idx,171,target_system,0,cam_idx,0,flags,0,Len,53
10-02-2016,15:25:49,FE,2D,DC,54,1,B4,mavlink_camera_feedback_t,time_usec,1.45511E+15,lat,474101216,lng,380175984,alt_msl,379.07,alt_rel,300.36,roll,0.27,pitch,-0.41,yaw,107.13,foc_len,0,img_idx,172,target_system,0,cam_idx,0,flags,0,Len,53
10-02-2016,15:25:56,FE,2D,D,54,1,B4,mavlink_camera_feedback_t,time_usec,1.45511E+15,lat,474098737,lng,380188815,alt_msl,376.17,alt_rel,297.46,roll,-0.03,pitch,1.43,yaw,105.98,foc_len,0,img_idx,173,target_system,0,cam_idx,0,flags,0,Len,53
10-02-2016,15:26:04,FE,2D,50,54,1,B4,mavlink_camera_feedback_t,time_usec,1.45511E+15,lat,474096257,lng,380201745,alt_msl,378.87,alt_rel,300.16,roll,2.66,pitch,0.79,yaw,104.57,foc_len,0,img_idx,174,target_system,0,cam_idx,0,flags,0,Len,53
10-02-2016,15:26:12,FE,2D,A0,54,1,B4,mavlink_camera_feedback_t,time_usec,1.45511E+15,lat,474093774,lng,380214690,alt_msl,378.8,alt_rel,300.09,roll,0.91,pitch,1.01,yaw,103.87,foc_len,0,img_idx,175,target_system,0,cam_idx,0,flags,0,Len,53
10-02-2016,15:26:20,FE,2D,DE,54,1,B4,mavlink_camera_feedback_t,time_usec,1.45511E+15,lat,474091453,lng,380227917,alt_msl,378.19,alt_rel,299.48,roll,1.57,pitch,0.59,yaw,104.92,foc_len,0,img_idx,176,target_system,0,cam_idx,0,flags,0,Len,53
10-02-2016,15:26:28,FE,2D,D,54,1,B4,mavlink_camera_feedback_t,time_usec,1.45511E+15,lat,474089066,lng,380240821,alt_msl,378.06,alt_rel,299.35,roll,1.42,pitch,1.15,yaw,103.45,foc_len,0,img_idx,177,target_system,0,cam_idx,0,flags,0,Len,53
10-02-2016,15:26:36,FE,2D,4C,54,1,B4,mavlink_camera_feedback_t,time_usec,1.45511E+15,lat,474086646,lng,380253905,alt_msl,380.46,alt_rel,301.75,roll,1.81,pitch,-1.23,yaw,106.14,foc_len,0,img_idx,178,target_system,0,cam_idx,0,flags,0,Len,53
10-02-2016,15:26:43,FE,2D,86,54,1,B4,mavlink_camera_feedback_t,time_usec,1.45511E+15,lat,474084218,lng,380266870,alt_msl,379.3,alt_rel,300.59,roll,3.11,pitch,0.75,yaw,103.29,foc_len,0,img_idx,179,target_system,0,cam_idx,0,flags,0,Len,53
10-02-2016,15:26:51,FE,2D,D6,54,1,B4,mavlink_camera_feedback_t,time_usec,1.45511E+15,lat,474081762,lng,380279642,alt_msl,378.12,alt_rel,299.41,roll,1.67,pitch,-0.76,yaw,104.92,foc_len,0,img_idx,180,target_system,0,cam_idx,0,flags,0,Len,53
10-02-2016,15:26:59,FE,2D,6,54,1,B4,mavlink_camera_feedback_t,time_usec,1.45511E+15,lat,474079378,lng,380292579,alt_msl,379.65,alt_rel,300.94,roll,2.03,pitch,0.09,yaw,104.47,foc_len,0,img_idx,181,target_system,0,cam_idx,0,flags,0,Len,53
10-02-2016,15:27:07,FE,2D,44,54,1,B4,mavlink_camera_feedback_t,time_usec,1.45511E+15,lat,474076937,lng,380305542,alt_msl,378.22,alt_rel,299.51,roll,2.28,pitch,0.23,yaw,105.37,foc_len,0,img_idx,182,target_system,0,cam_idx,0,flags,0,Len,53
10-02-2016,15:27:15,FE,2D,85,54,1,B4,mavlink_camera_feedback_t,time_usec,1.45511E+15,lat,474074475,lng,380318519,alt_msl,379.16,alt_rel,300.45,roll,2.59,pitch,0.64,yaw,104.82,foc_len,0,img_idx,183,target_system,0,cam_idx,0,flags,0,Len,53
10-02-2016,15:27:22,FE,2D,C1,54,1,B4,mavlink_camera_feedback_t,time_usec,1.45511E+15,lat,474072100,lng,380331326,alt_msl,378.67,alt_rel,299.96,roll,1.64,pitch,0.51,yaw,106.29,foc_len,0,img_idx,184,target_system,0,cam_idx,0,flags,0,Len,53
10-02-2016,15:27:30,FE,2D,4,54,1,B4,mavlink_camera_feedback_t,time_usec,1.45511E+15,lat,474069629,lng,380344203,alt_msl,379.42,alt_rel,300.71,roll,1.16,pitch,-1.07,yaw,105.07,foc_len,0,img_idx,185,target_system,0,cam_idx,0,flags,0,Len,53
10-02-2016,15:27:38,FE,2D,4C,54,1,B4,mavlink_camera_feedback_t,time_usec,1.45511E+15,lat,474067183,lng,380357210,alt_msl,378.96,alt_rel,300.25,roll,1.25,pitch,-0.06,yaw,104.42,foc_len,0,img_idx,186,target_system,0,cam_idx,0,flags,0,Len,53
10-02-2016,15:27:46,FE,2D,A4,54,1,B4,mavlink_camera_feedback_t,time_usec,1.45511E+15,lat,474064653,lng,380370224,alt_msl,380.19,alt_rel,301.48,roll,1.15,pitch,-1.32,yaw,103.71,foc_len,0,img_idx,187,target_system,0,cam_idx,0,flags,0,Len,53
10-02-2016,15:27:54,FE,2D,FC,54,1,B4,mavlink_camera_feedback_t,time_usec,1.45511E+15,lat,474062233,lng,380383234,alt_msl,377.93,alt_rel,299.22,roll,2.35,pitch,-0.71,yaw,103.45,foc_len,0,img_idx,188,target_system,0,cam_idx,0,flags,0,Len,53
10-02-2016,15:28:03,FE,2D,4E,54,1,B4,mavlink_camera_feedback_t,time_usec,1.45511E+15,lat,474059824,lng,380396126,alt_msl,379.01,alt_rel,300.3,roll,-1.1,pitch,-1.81,yaw,108.14,foc_len,0,img_idx,189,target_system,0,cam_idx,0,flags,0,Len,53
10-02-2016,15:28:11,FE,2D,AF,54,1,B4,mavlink_camera_feedback_t,time_usec,1.45511E+15,lat,474057370,lng,380409307,alt_msl,379.54,alt_rel,300.83,roll,0.91,pitch,-1.57,yaw,107.59,foc_len,0,img_idx,190,target_system,0,cam_idx,0,flags,0,Len,53
10-02-2016,15:28:19,FE,2D,B,54,1,B4,mavlink_camera_feedback_t,time_usec,1.45511E+15,lat,474054917,lng,380422135,alt_msl,379.14,alt_rel,300.43,roll,-0.15,pitch,-2.37,yaw,105.39,foc_len,0,img_idx,191,target_system,0,cam_idx,0,flags,0,Len,53
10-02-2016,15:28:27,FE,2D,55,54,1,B4,mavlink_camera_feedback_t,time_usec,1.45511E+15,lat,474052582,lng,380435430,alt_msl,377.93,alt_rel,299.22,roll,2.98,pitch,0.78,yaw,102.53,foc_len,0,img_idx,192,target_system,0,cam_idx,0,flags,0,Len,53
10-02-2016,15:28:35,FE,2D,B0,54,1,B4,mavlink_camera_feedback_t,time_usec,1.45511E+15,lat,474050088,lng,380448261,alt_msl,379.4,alt_rel,300.69,roll,1.25,pitch,0.35,yaw,104.83,foc_len,0,img_idx,193,target_system,0,cam_idx,0,flags,0,Len,53
10-02-2016,15:28:43,FE,2D,FB,54,1,B4,mavlink_camera_feedback_t,time_usec,1.45511E+15,lat,474047784,lng,380461140,alt_msl,377.55,alt_rel,298.84,roll,2.93,pitch,0.02,yaw,106.24,foc_len,0,img_idx,194,target_system,0,cam_idx,0,flags,0,Len,53
10-02-2016,15:28:52,FE,2D,53,54,1,B4,mavlink_camera_feedback_t,time_usec,1.45511E+15,lat,474044919,lng,380473966,alt_msl,378.43,alt_rel,299.72,roll,22.43,pitch,-0.78,yaw,120.73,foc_len,0,img_idx,195,target_system,0,cam_idx,0,flags,0,Len,53
10-02-2016,15:28:58,FE,2D,6B,54,1,B4,mavlink_camera_feedback_t,time_usec,1.45511E+15,lat,474035791,lng,380475232,alt_msl,379.52,alt_rel,300.81,roll,-2.97,pitch,0.45,yaw,165.89,foc_len,0,img_idx,196,target_system,0,cam_idx,0,flags,0,Len,53
10-02-2016,15:29:05,FE,2D,71,54,1,B4,mavlink_camera_feedback_t,time_usec,1.45511E+15,lat,474026652,lng,380474501,alt_msl,377.65,alt_rel,298.94,roll,1.96,pitch,1.74,yaw,176.39,foc_len,0,img_idx,197,target_system,0,cam_idx,0,flags,0,Len,53
10-02-2016,15:29:11,FE,2D,74,54,1,B4,mavlink_camera_feedback_t,time_usec,1.45511E+15,lat,474017600,lng,380473356,alt_msl,379.91,alt_rel,301.2,roll,1.46,pitch,-2.14,yaw,182.61,foc_len,0,img_idx,198,target_system,0,cam_idx,0,flags,0,Len,53
10-02-2016,15:29:17,FE,2D,65,54,1,B4,mavlink_camera_feedback_t,time_usec,1.45511E+15,lat,474008622,lng,380472343,alt_msl,378.26,alt_rel,299.55,roll,4.9,pitch,0.49,yaw,183.12,foc_len,0,img_idx,199,target_system,0,cam_idx,0,flags,0,Len,53
10-02-2016,15:29:22,FE,2D,49,54,1,B4,mavlink_camera_feedback_t,time_usec,1.45511E+15,lat,473999586,lng,380468682,alt_msl,376.79,alt_rel,298.08,roll,34.69,pitch,-2.59,yaw,222.82,foc_len,0,img_idx,200,target_system,0,cam_idx,0,flags,0,Len,53
10-02-2016,15:29:26,FE,2D,DF,54,1,B4,mavlink_camera_feedback_t,time_usec,1.45511E+15,lat,473997110,lng,380455638,alt_msl,376.85,alt_rel,298.14,roll,37.62,pitch,-3.14,yaw,291.36,foc_len,0,img_idx,201,target_system,0,cam_idx,0,flags,0,Len,53
10-02-2016,15:29:29,FE,2D,66,54,1,B4,mavlink_camera_feedback_t,time_usec,1.45511E+15,lat,474001803,lng,380444129,alt_msl,378.02,alt_rel,299.31,roll,-21.88,pitch,2.98,yaw,329.38,foc_len,0,img_idx,202,target_system,0,cam_idx,0,flags,0,Len,53
10-02-2016,15:29:32,FE,2D,F5,54,1,B4,mavlink_camera_feedback_t,time_usec,1.45511E+15,lat,474005880,lng,380432080,alt_msl,380.57,alt_rel,301.86,roll,-13.01,pitch,-2.45,yaw,286.45,foc_len,0,img_idx,203,target_system,0,cam_idx,0,flags,0,Len,53
10-02-2016,15:29:36,FE,2D,82,54,1,B4,mavlink_camera_feedback_t,time_usec,1.45511E+15,lat,474007607,lng,380418345,alt_msl,380.23,alt_rel,301.52,roll,6.2,pitch,0.57,yaw,286.64,foc_len,0,img_idx,204,target_system,0,cam_idx,0,flags,0,Len,53
10-02-2016,15:29:39,FE,2D,1D,54,1,B4,mavlink_camera_feedback_t,time_usec,1.45511E+15,lat,474010041,lng,380404990,alt_msl,382.29,alt_rel,303.58,roll,0.36,pitch,-4.16,yaw,287.17,foc_len,0,img_idx,205,target_system,0,cam_idx,0,flags,0,Len,53
10-02-2016,15:29:43,FE,2D,B7,54,1,B4,mavlink_camera_feedback_t,time_usec,1.45511E+15,lat,474012442,lng,380391829,alt_msl,377.85,alt_rel,299.14,roll,2.4,pitch,-3.72,yaw,287.8,foc_len,0,img_idx,206,target_system,0,cam_idx,0,flags,0,Len,53
10-02-2016,15:29:47,FE,2D,51,54,1,B4,mavlink_camera_feedback_t,time_usec,1.45511E+15,lat,474014928,lng,380378546,alt_msl,378.18,alt_rel,299.47,roll,-1.14,pitch,-1.99,yaw,289.43,foc_len,0,img_idx,207,target_system,0,cam_idx,0,flags,0,Len,53
10-02-2016,15:29:50,FE,2D,E2,54,1,B4,mavlink_camera_feedback_t,time_usec,1.45511E+15,lat,474017299,lng,380365388,alt_msl,377.67,alt_rel,298.96,roll,1.23,pitch,-2.68,yaw,283.46,foc_len,0,img_idx,208,target_system,0,cam_idx,0,flags,0,Len,53
10-02-2016,15:29:54,FE,2D,74,54,1,B4,mavlink_camera_feedback_t,time_usec,1.45511E+15,lat,474019552,lng,380352375,alt_msl,376.98,alt_rel,298.27,roll,1.1,pitch,0.43,yaw,282.81,foc_len,0,img_idx,209,target_system,0,cam_idx,0,flags,0,Len,53
10-02-2016,15:29:58,FE,2D,1B,54,1,B4,mavlink_camera_feedback_t,time_usec,1.45511E+15,lat,474021937,lng,380339298,alt_msl,376.44,alt_rel,297.73,roll,0.65,pitch,-0.99,yaw,286.89,foc_len,0,img_idx,210,target_system,0,cam_idx,0,flags,0,Len,53
10-02-2016,15:30:01,FE,2D,B5,54,1,B4,mavlink_camera_feedback_t,time_usec,1.45511E+15,lat,474024354,lng,380326381,alt_msl,379.09,alt_rel,300.38,roll,1.38,pitch,-2.94,yaw,282.44,foc_len,0,img_idx,211,target_system,0,cam_idx,0,flags,0,Len,53
10-02-2016,15:30:05,FE,2D,4F,54,1,B4,mavlink_camera_feedback_t,time_usec,1.45511E+15,lat,474026676,lng,380313210,alt_msl,377.9,alt_rel,299.19,roll,-2.69,pitch,-2.27,yaw,289.4,foc_len,0,img_idx,212,target_system,0,cam_idx,0,flags,0,Len,53
10-02-2016,15:30:09,FE,2D,F9,54,1,B4,mavlink_camera_feedback_t,time_usec,1.45511E+15,lat,474029236,lng,380299337,alt_msl,377.08,alt_rel,298.37,roll,3.29,pitch,-1.28,yaw,284.87,foc_len,0,img_idx,213,target_system,0,cam_idx,0,flags,0,Len,53
10-02-2016,15:30:13,FE,2D,99,54,1,B4,mavlink_camera_feedback_t,time_usec,1.45511E+15,lat,474031740,lng,380286092,alt_msl,379.12,alt_rel,300.41,roll,1.02,pitch,-1.43,yaw,289.64,foc_len,0,img_idx,214,target_system,0,cam_idx,0,flags,0,Len,53
10-02-2016,15:30:17,FE,2D,33,54,1,B4,mavlink_camera_feedback_t,time_usec,1.45511E+15,lat,474034167,lng,380272882,alt_msl,377.1,alt_rel,298.39,roll,0.16,pitch,-2.24,yaw,282.17,foc_len,0,img_idx,215,target_system,0,cam_idx,0,flags,0,Len,53
10-02-2016,15:30:21,FE,2D,DE,54,1,B4,mavlink_camera_feedback_t,time_usec,1.45511E+15,lat,474036543,lng,380258694,alt_msl,377.71,alt_rel,299,roll,1.55,pitch,0.9,yaw,283.55,foc_len,0,img_idx,216,target_system,0,cam_idx,0,flags,0,Len,53
10-02-2016,15:30:25,FE,2D,88,54,1,B4,mavlink_camera_feedback_t,time_usec,1.45511E+15,lat,474038954,lng,380245491,alt_msl,376.89,alt_rel,298.18,roll,0.22,pitch,-1.06,yaw,281.88,foc_len,0,img_idx,217,target_system,0,cam_idx,0,flags,0,Len,53
10-02-2016,15:30:28,FE,2D,21,54,1,B4,mavlink_camera_feedback_t,time_usec,1.45511E+15,lat,474041254,lng,380232288,alt_msl,379.27,alt_rel,300.56,roll,3.08,pitch,0.85,yaw,283.66,foc_len,0,img_idx,218,target_system,0,cam_idx,0,flags,0,Len,53
10-02-2016,15:30:33,FE,2D,C9,54,1,B4,mavlink_camera_feedback_t,time_usec,1.45511E+15,lat,474043911,lng,380219184,alt_msl,379.48,alt_rel,300.77,roll,-0.81,pitch,-1.74,yaw,287.81,foc_len,0,img_idx,219,target_system,0,cam_idx,0,flags,0,Len,53
10-02-2016,15:30:37,FE,2D,70,54,1,B4,mavlink_camera_feedback_t,time_usec,1.45511E+15,lat,474046431,lng,380205952,alt_msl,381.95,alt_rel,303.24,roll,-2.08,pitch,-2.08,yaw,284.19,foc_len,0,img_idx,220,target_system,0,cam_idx,0,flags,0,Len,53
10-02-2016,15:30:40,FE,2D,1C,54,1,B4,mavlink_camera_feedback_t,time_usec,1.45511E+15,lat,474048697,lng,380192763,alt_msl,379.47,alt_rel,300.76,roll,-3.39,pitch,-6.43,yaw,288.1,foc_len,0,img_idx,221,target_system,0,cam_idx,0,flags,0,Len,53
10-02-2016,15:30:44,FE,2D,B6,54,1,B4,mavlink_camera_feedback_t,time_usec,1.45511E+15,lat,474051142,lng,380179104,alt_msl,377.91,alt_rel,299.2,roll,4.2,pitch,1.29,yaw,280.04,foc_len,0,img_idx,222,target_system,0,cam_idx,0,flags,0,Len,53
10-02-2016,15:30:49,FE,2D,6A,54,1,B4,mavlink_camera_feedback_t,time_usec,1.45511E+15,lat,474053595,lng,380165640,alt_msl,378.47,alt_rel,299.76,roll,-1.1,pitch,-2.44,yaw,280.73,foc_len,0,img_idx,223,target_system,0,cam_idx,0,flags,0,Len,53
10-02-2016,15:30:53,FE,2D,23,54,1,B4,mavlink_camera_feedback_t,time_usec,1.45511E+15,lat,474055981,lng,380151565,alt_msl,378.54,alt_rel,299.83,roll,2.44,pitch,-0.12,yaw,285.93,foc_len,0,img_idx,224,target_system,0,cam_idx,0,flags,0,Len,53
10-02-2016,15:30:57,FE,2D,D2,54,1,B4,mavlink_camera_feedback_t,time_usec,1.45511E+15,lat,474058460,lng,380138703,alt_msl,378.29,alt_rel,299.58,roll,-0.7,pitch,-2.39,yaw,283.06,foc_len,0,img_idx,225,target_system,0,cam_idx,0,flags,0,Len,53
10-02-2016,15:31:01,FE,2D,80,54,1,B4,mavlink_camera_feedback_t,time_usec,1.45511E+15,lat,474060825,lng,380125835,alt_msl,378.32,alt_rel,299.61,roll,-3.1,pitch,-2.79,yaw,292.05,foc_len,0,img_idx,226,target_system,0,cam_idx,0,flags,0,Len,53
10-02-2016,15:31:06,FE,2D,2F,54,1,B4,mavlink_camera_feedback_t,time_usec,1.45511E+15,lat,474063305,lng,380112880,alt_msl,378.68,alt_rel,299.97,roll,-1.54,pitch,-1.82,yaw,285.23,foc_len,0,img_idx,227,target_system,0,cam_idx,0,flags,0,Len,53
10-02-2016,15:31:10,FE,2D,E7,54,1,B4,mavlink_camera_feedback_t,time_usec,1.45511E+15,lat,474065481,lng,380099040,alt_msl,380.12,alt_rel,301.41,roll,-0.95,pitch,-2.23,yaw,282.94,foc_len,0,img_idx,228,target_system,0,cam_idx,0,flags,0,Len,53
10-02-2016,15:31:14,FE,2D,9C,54,1,B4,mavlink_camera_feedback_t,time_usec,1.45511E+15,lat,474067728,lng,380085691,alt_msl,376.41,alt_rel,297.7,roll,4.68,pitch,-2.79,yaw,291.6,foc_len,0,img_idx,229,target_system,0,cam_idx,0,flags,0,Len,53
10-02-2016,15:31:18,FE,2D,39,54,1,B4,mavlink_camera_feedback_t,time_usec,1.45511E+15,lat,474070394,lng,380072938,alt_msl,377.29,alt_rel,298.58,roll,-2.65,pitch,0.16,yaw,281.9,foc_len,0,img_idx,230,target_system,0,cam_idx,0,flags,0,Len,53
10-02-2016,15:31:22,FE,2D,E1,54,1,B4,mavlink_camera_feedback_t,time_usec,1.45511E+15,lat,474072431,lng,380059765,alt_msl,377.58,alt_rel,298.87,roll,4.2,pitch,-1.88,yaw,287.32,foc_len,0,img_idx,231,target_system,0,cam_idx,0,flags,0,Len,53
10-02-2016,15:31:26,FE,2D,82,54,1,B4,mavlink_camera_feedback_t,time_usec,1.45511E+15,lat,474074937,lng,380046900,alt_msl,379.42,alt_rel,300.71,roll,-2.51,pitch,-2.39,yaw,283.62,foc_len,0,img_idx,232,target_system,0,cam_idx,0,flags,0,Len,53
10-02-2016,15:31:30,FE,2D,2B,54,1,B4,mavlink_camera_feedback_t,time_usec,1.45511E+15,lat,474077223,lng,380033697,alt_msl,380.18,alt_rel,301.47,roll,2.92,pitch,-3.79,yaw,282.77,foc_len,0,img_idx,233,target_system,0,cam_idx,0,flags,0,Len,53
10-02-2016,15:31:34,FE,2D,C7,54,1,B4,mavlink_camera_feedback_t,time_usec,1.45511E+15,lat,474079512,lng,380020806,alt_msl,380.54,alt_rel,301.83,roll,3.4,pitch,-1.89,yaw,289.09,foc_len,0,img_idx,234,target_system,0,cam_idx,0,flags,0,Len,53
10-02-2016,15:31:38,FE,2D,73,54,1,B4,mavlink_camera_feedback_t,time_usec,1.45511E+15,lat,474082221,lng,380007544,alt_msl,379.26,alt_rel,300.55,roll,-2.33,pitch,-3.87,yaw,287.05,foc_len,0,img_idx,235,target_system,0,cam_idx,0,flags,0,Len,53
10-02-2016,15:31:42,FE,2D,10,54,1,B4,mavlink_camera_feedback_t,time_usec,1.45511E+15,lat,474084500,lng,379994648,alt_msl,378,alt_rel,299.29,roll,-0.99,pitch,-1.27,yaw,286.97,foc_len,0,img_idx,236,target_system,0,cam_idx,0,flags,0,Len,53
10-02-2016,15:31:50,FE,2D,5E,54,1,B4,mavlink_camera_feedback_t,time_usec,1.45511E+15,lat,474089142,lng,379967864,alt_msl,377.33,alt_rel,298.62,roll,2.46,pitch,0.26,yaw,287.03,foc_len,0,img_idx,238,target_system,0,cam_idx,0,flags,0,Len,53
10-02-2016,15:31:54,FE,2D,9,54,1,B4,mavlink_camera_feedback_t,time_usec,1.45511E+15,lat,474091643,lng,379954713,alt_msl,379.63,alt_rel,300.92,roll,0.16,pitch,-0.92,yaw,281.2,foc_len,0,img_idx,239,target_system,0,cam_idx,0,flags,0,Len,53
10-02-2016,15:31:58,FE,2D,AE,54,1,B4,mavlink_camera_feedback_t,time_usec,1.45511E+15,lat,474094014,lng,379941412,alt_msl,378.51,alt_rel,299.8,roll,-1.63,pitch,-2.72,yaw,293.1,foc_len,0,img_idx,240,target_system,0,cam_idx,0,flags,0,Len,53
10-02-2016,15:32:01,FE,2D,4F,54,1,B4,mavlink_camera_feedback_t,time_usec,1.45511E+15,lat,474096390,lng,379928509,alt_msl,379.18,alt_rel,300.47,roll,0.86,pitch,0.21,yaw,281.92,foc_len,0,img_idx,241,target_system,0,cam_idx,0,flags,0,Len,53
10-02-2016,15:32:05,FE,2D,F1,54,1,B4,mavlink_camera_feedback_t,time_usec,1.45511E+15,lat,474098652,lng,379915326,alt_msl,379.67,alt_rel,300.96,roll,0.89,pitch,-3.68,yaw,285.55,foc_len,0,img_idx,242,target_system,0,cam_idx,0,flags,0,Len,53
10-02-2016,15:32:09,FE,2D,91,54,1,B4,mavlink_camera_feedback_t,time_usec,1.45511E+15,lat,474100954,lng,379902287,alt_msl,377.09,alt_rel,298.38,roll,3.32,pitch,-0.88,yaw,288.57,foc_len,0,img_idx,243,target_system,0,cam_idx,0,flags,0,Len,53
10-02-2016,15:32:13,FE,2D,2F,54,1,B4,mavlink_camera_feedback_t,time_usec,1.45511E+15,lat,474103562,lng,379889137,alt_msl,379.19,alt_rel,300.48,roll,-0.67,pitch,-0.86,yaw,286.72,foc_len,0,img_idx,244,target_system,0,cam_idx,0,flags,0,Len,53
10-02-2016,15:32:17,FE,2D,C8,54,1,B4,mavlink_camera_feedback_t,time_usec,1.45511E+15,lat,474105901,lng,379876229,alt_msl,379.69,alt_rel,300.98,roll,-1.25,pitch,-2.31,yaw,289.56,foc_len,0,img_idx,245,target_system,0,cam_idx,0,flags,0,Len,53
10-02-2016,15:32:21,FE,2D,69,54,1,B4,mavlink_camera_feedback_t,time_usec,1.45511E+15,lat,474108249,lng,379862736,alt_msl,378.86,alt_rel,300.15,roll,-0.78,pitch,-2.61,yaw,286.06,foc_len,0,img_idx,246,target_system,0,cam_idx,0,flags,0,Len,53
10-02-2016,15:32:25,FE,2D,F,54,1,B4,mavlink_camera_feedback_t,time_usec,1.45511E+15,lat,474110617,lng,379849725,alt_msl,378.46,alt_rel,299.75,roll,0.48,pitch,-3.27,yaw,286.49,foc_len,0,img_idx,247,target_system,0,cam_idx,0,flags,0,Len,53
10-02-2016,15:32:28,FE,2D,AB,54,1,B4,mavlink_camera_feedback_t,time_usec,1.45511E+15,lat,474113216,lng,379836391,alt_msl,376.36,alt_rel,297.65,roll,-0.82,pitch,0.98,yaw,279.41,foc_len,0,img_idx,248,target_system,0,cam_idx,0,flags,0,Len,53
10-02-2016,15:32:32,FE,2D,48,54,1,B4,mavlink_camera_feedback_t,time_usec,1.45511E+15,lat,474115430,lng,379822973,alt_msl,377.76,alt_rel,299.05,roll,0.9,pitch,0.92,yaw,281.94,foc_len,0,img_idx,249,target_system,0,cam_idx,0,flags,0,Len,53
10-02-2016,15:32:36,FE,2D,ED,54,1,B4,mavlink_camera_feedback_t,time_usec,1.45511E+15,lat,474117671,lng,379809689,alt_msl,378.14,alt_rel,299.43,roll,1.34,pitch,0.51,yaw,290.7,foc_len,0,img_idx,250,target_system,0,cam_idx,0,flags,0,Len,53
10-02-2016,15:32:40,FE,2D,86,54,1,B4,mavlink_camera_feedback_t,time_usec,1.45511E+15,lat,474120162,lng,379796831,alt_msl,379.04,alt_rel,300.33,roll,-2.12,pitch,-1.52,yaw,292.26,foc_len,0,img_idx,251,target_system,0,cam_idx,0,flags,0,Len,53
10-02-2016,15:32:44,FE,2D,31,54,1,B4,mavlink_camera_feedback_t,time_usec,1.45511E+15,lat,474122642,lng,379783375,alt_msl,378.28,alt_rel,299.57,roll,-1.19,pitch,-0.61,yaw,279.85,foc_len,0,img_idx,252,target_system,0,cam_idx,0,flags,0,Len,53
10-02-2016,15:32:48,FE,2D,CF,54,1,B4,mavlink_camera_feedback_t,time_usec,1.45511E+15,lat,474124751,lng,379770293,alt_msl,378.1,alt_rel,299.39,roll,3.4,pitch,0.58,yaw,280.87,foc_len,0,img_idx,253,target_system,0,cam_idx,0,flags,0,Len,53
10-02-2016,15:32:52,FE,2D,73,54,1,B4,mavlink_camera_feedback_t,time_usec,1.45511E+15,lat,474127134,lng,379757048,alt_msl,376.8,alt_rel,298.09,roll,1.16,pitch,-0.61,yaw,286.02,foc_len,0,img_idx,254,target_system,0,cam_idx,0,flags,0,Len,53
10-02-2016,15:32:55,FE,2D,3,54,1,B4,mavlink_camera_feedback_t,time_usec,1.45511E+15,lat,474129496,lng,379744132,alt_msl,376.4,alt_rel,297.69,roll,1.51,pitch,2.4,yaw,287.23,foc_len,0,img_idx,255,target_system,0,cam_idx,0,flags,0,Len,53
10-02-2016,15:32:59,FE,2D,A1,54,1,B4,mavlink_camera_feedback_t,time_usec,1.45511E+15,lat,474132068,lng,379730539,alt_msl,379.02,alt_rel,300.31,roll,2.99,pitch,2.1,yaw,283.21,foc_len,0,img_idx,256,target_system,0,cam_idx,0,flags,0,Len,53
10-02-2016,15:33:02,FE,2D,38,54,1,B4,mavlink_camera_feedback_t,time_usec,1.45511E+15,lat,474134445,lng,379717658,alt_msl,379.31,alt_rel,300.6,roll,-1.15,pitch,0.29,yaw,286.4,foc_len,0,img_idx,257,target_system,0,cam_idx,0,flags,0,Len,53